[
  {
    "id": "740cd7a1",
    "title": "Concerto acustico al parco",
    "category": "Musica",
    "date": "2025-09-01",
    "time": "18:00",
    "venue": "Parco del Valentino",
    "address": "Viale Mattioli",
    "city": "Torino",
    "price": "Gratis",
    "coords": {
      "lat": 45.050960062137335,
      "lng": 7.68310656350501
    }
  },
  {
    "id": "03fdc2cf",
    "title": "Street food night",
    "category": "Food & Drink",
    "date": "2025-09-02",
    "time": "19:00",
    "venue": "Piazza Vittorio Veneto",
    "address": "Piazza Vittorio",
    "city": "Torino",
    "price": "10€",
    "coords": {
      "lat": 45.06391867903534,
      "lng": 7.696451463027965
    }
  },
  {
    "id": "a750b8b6",
    "title": "DJ set sul fiume",
    "category": "Nightlife",
    "date": "2025-09-05",
    "time": "20:00",
    "venue": "Murazzi del Po",
    "address": "Lungo Po Diaz",
    "city": "Torino",
    "price": "10€",
    "coords": {
      "lat": 45.06761659217645,
      "lng": 7.7004148621889374
    }
  },
  {
    "id": "473cec7c",
    "title": "Cinema all’aperto",
    "category": "Cultura/Spettacolo",
    "date": "2025-09-06",
    "time": "21:00",
    "venue": "Cortile Castello",
    "address": "Piazza Castello",
    "city": "Torino",
    "price": "Gratis",
    "coords": {
      "lat": 45.06921205097992,
      "lng": 7.681029794985694
    }
  },
  {
    "id": "b1720314",
    "title": "Letture per bambini",
    "category": "Famiglie & Bambini",
    "date": "2025-09-07",
    "time": "18:00",
    "venue": "Biblioteca Civica",
    "address": "Via della Cittadella",
    "city": "Torino",
    "price": "10€",
    "coords": {
      "lat": 45.07042817688541,
      "lng": 7.675954789133445
    }
  },
  {
    "id": "40dbb884",
    "title": "Corsa non competitiva",
    "category": "Sport",
    "date": "2025-09-01",
    "time": "19:00",
    "venue": "Parco Ruffini",
    "address": "Corso Trapani",
    "city": "Torino",
    "price": "10€",
    "coords": {
      "lat": 45.059616600012,
      "lng": 7.634208932873332
    }
  },
  {
    "id": "1e466c00",
    "title": "Sagra della nocciola",
    "category": "Sagre & Fiere",
    "date": "2025-09-02",
    "time": "20:00",
    "venue": "Piazza centrale",
    "address": "Via Roma",
    "city": "Alessandria",
    "price": "Gratis",
    "coords": {
      "lat": 44.9124186320993,
      "lng": 8.611061449985986
    }
  },
  {
    "id": "b145ae3b",
    "title": "Mercatino artigianale",
    "category": "Mercatini",
    "date": "2025-09-05",
    "time": "21:00",
    "venue": "Centro storico",
    "address": "Via Milano",
    "city": "Alessandria",
    "price": "10€",
    "coords": {
      "lat": 44.91327794234529,
      "lng": 8.60701862970104
    }
  }
]